{
  "users": [],
  "ads": [
    {
      "id": 1,
      "userId": 0,
      "location": {
        "lat": 35.321,
        "lng": 59.226
      },
      "address": "Kerman, Iran",
      "description": "Charming flat in Kerman",
      "phone": "09121234572"
    },
    {
      "id": 2,
      "userId": 0,
      "location": {
        "lat": 35.6892,
        "lng": 51.389
      },
      "address": "Test",
      "description": "Test",
      "phone": "05445667"
    },
    {
      "id": 3,
      "userId": 0,
      "location": {
        "lat": 36.737232,
        "lng": 59.724111
      },
      "address": "Mashhad, Iran",
      "description": "Beautiful home in Mashhad",
      "phone": "09121234568"
    },
    {
      "id": 4,
      "userId": 0,
      "location": {
        "lat": 32.6345,
        "lng": 51.689
      },
      "address": "Isfahan, Iran",
      "description": "Cozy apartment in Isfahan",
      "phone": "09121234569"
    },
    {
      "id": 5,
      "userId": 0,
      "location": {
        "lat": 37.2836,
        "lng": 49.6941
      },
      "address": "Tabriz, Iran",
      "description": "Spacious house in Tabriz",
      "phone": "09121234570"
    },
    {
      "id": 6,
      "userId": 0,
      "location": {
        "lat": 30.2836,
        "lng": 51.6961
      },
      "address": "Shiraz, Iran",
      "description": "Modern apartment in Shiraz",
      "phone": "09121234571"
    },
    {
      "id": 7,
      "userId": 0,
      "location": {
        "lat": 35.321,
        "lng": 59.226
      },
      "address": "Kerman, Iran",
      "description": "Charming flat in Kerman",
      "phone": "09121234572"
    },
    {
      "id": 8,
      "userId": 0,
      "location": {
        "lat": 37.251,
        "lng": 49.552
      },
      "address": "Urmia, Iran",
      "description": "Nice apartment in Urmia",
      "phone": "09121234573"
    },
    {
      "id": 9,
      "userId": 0,
      "location": {
        "lat": 35.678,
        "lng": 51.668
      },
      "address": "Karaj, Iran",
      "description": "Lovely home in Karaj",
      "phone": "09121234574"
    },
    {
      "id": 10,
      "userId": 0,
      "location": {
        "lat": 35.756,
        "lng": 51.446
      },
      "address": "Alborz, Iran",
      "description": "Elegant apartment in Alborz",
      "phone": "09121234575"
    }
  ]
}
